[
    { "name": "New Delhi", "latitude": 28.6139, "longitude": 77.209 },
    { "name": "Mumbai", "latitude": 19.076, "longitude": 72.8777 },
    { "name": "Bangalore", "latitude": 12.9716, "longitude": 77.5946 },
    { "name": "Chennai", "latitude": 13.0827, "longitude": 80.2707 },
    { "name": "Kolkata", "latitude": 22.5726, "longitude": 88.3639 }
]
